[
    {
      "country": "Mexico", 
      "id": 1, 
      "lat": 20.4323493, 
      "lng": -87.0143379, 
      "name": "Cozumel", 
      "zoom_level": 11.0
    }, 
    {
      "country": "Thailand", 
      "id": 2, 
      "lat": 10.0923203, 
      "lng": 99.8178946, 
      "name": "Koh Tao", 
      "zoom_level": 11.0
    }, 
    {
      "country": "Algeria", 
      "id": 5095, 
      "lat": 36.7875, 
      "lng": 3.3244, 
      "name": "A\u00efn Taya", 
      "zoom_level": 11.0
    }, 
    {
      "country": "Angola", 
      "id": 5406, 
      "lat": -13.8679, 
      "lng": 12.5189, 
      "name": "Namibe", 
      "zoom_level": 11.0
    }, 
    {
      "country": "Anguilla", 
      "id": 4555, 
      "lat": 18.2105, 
      "lng": -63.0935, 
      "name": "Sandy Ground Village", 
      "zoom_level": 11.0
    }, 
    {
      "country": "Anguilla", 
      "id": 4556, 
      "lat": 18.197499999999998, 
      "lng": -63.162749999999996, 
      "name": "West End Village", 
      "zoom_level": 11.0
    }, 
    {
      "country": "Antigua and Barbuda", 
      "id": 4571, 
      "lat": 18.979, 
      "lng": -58.7109, 
      "name": "Codrington", 
      "zoom_level": 11.0
    }, 
    {
      "country": "Antigua and Barbuda", 
      "id": 4572, 
      "lat": 17.001150000000003, 
      "lng": -61.769999999999996, 
      "name": "Falmouth", 
      "zoom_level": 11.0
    }, 
    {
      "country": "Antigua and Barbuda", 
      "id": 4573, 
      "lat": 17.12, 
      "lng": -61.71, 
      "name": "Parham", 
      "zoom_level": 11.0
    }, 
    {
      "country": "Argentina", 
      "id": 5216, 
      "lat": -32.205, 
      "lng": -64.649, 
      "name": "Villa Rumipal", 
      "zoom_level": 11.0
    }
  ]
  